{
"type": "FeatureCollection",
"crs": { "type": "name", "properties": { "name": "urn:ogc:def:crs:OGC:1.3:CRS84" } },
"features": [
{ "type": "Feature", "properties": { "id": 1, "Nombre": "Adidas", "Profits": 12.0, "City": "Herzogenaurach", "Region": "Bavaria", "Sector": "sporting goods", "Upper_sectors": "trade" }, "geometry": { "type": "Point", "coordinates": [ 10.884731236205482, 49.569357448332866 ] } },
{ "type": "Feature", "properties": { "id": 2, "Nombre": "Allianz", "Profits": 106.5, "City": "Munich", "Region": "Bavaria", "Sector": "insurance", "Upper_sectors": "insurance & finance" }, "geometry": { "type": "Point", "coordinates": [ 11.575474502607864, 48.143295581493014 ] } },
{ "type": "Feature", "properties": { "id": 3, "Nombre": "BMW", "Profits": 60.5, "City": "Munich", "Region": "Bavaria", "Sector": "automobile", "Upper_sectors": "automobile" }, "geometry": { "type": "Point", "coordinates": [ 11.575474502607864, 48.143295581493014 ] } },
{ "type": "Feature", "properties": { "id": 4, "Nombre": "Infineon", "Profits": 4.0, "City": "Munich", "Region": "Bavaria", "Sector": "semiconductor", "Upper_sectors": "technology" }, "geometry": { "type": "Point", "coordinates": [ 11.575474502607864, 48.143295581493014 ] } },
{ "type": "Feature", "properties": { "id": 5, "Nombre": "Linde", "Profits": 12.9, "City": "Munich", "Region": "Bavaria", "Sector": "gas\/plant construction", "Upper_sectors": "technology" }, "geometry": { "type": "Point", "coordinates": [ 11.575474502607864, 48.143295581493014 ] } },
{ "type": "Feature", "properties": { "id": 6, "Nombre": "MAN", "Profits": 14.7, "City": "Munich", "Region": "Bavaria", "Sector": "machine construction", "Upper_sectors": "automobile" }, "geometry": { "type": "Point", "coordinates": [ 11.575474502607864, 48.143295581493014 ] } },
{ "type": "Feature", "properties": { "id": 7, "Nombre": "Siemens", "Profits": 73.5, "City": "Munich", "Region": "Bavaria", "Sector": "technology", "Upper_sectors": "technology" }, "geometry": { "type": "Point", "coordinates": [ 11.575474502607864, 48.143295581493014 ] } },
{ "type": "Feature", "properties": { "id": 8, "Nombre": "Munich RE (Münchener Rück)", "Profits": 45.5, "City": "Munich", "Region": "Bavaria", "Sector": "insurance", "Upper_sectors": "insurance & finance" }, "geometry": { "type": "Point", "coordinates": [ 11.575474502607864, 48.143295581493014 ] } },
{ "type": "Feature", "properties": { "id": 9, "Nombre": "BASF", "Profits": 63.9, "City": "Ludwigshafen", "Region": "Rhineland-Palatinate", "Sector": "chemistry", "Upper_sectors": "industry" }, "geometry": { "type": "Point", "coordinates": [ 8.436122682031792, 49.48141768720992 ] } },
{ "type": "Feature", "properties": { "id": 10, "Nombre": "Heidelberg Cement", "Profits": 11.8, "City": "Heidelberg", "Region": "Baden-Württemberg", "Sector": "material producer", "Upper_sectors": "building" }, "geometry": { "type": "Point", "coordinates": [ 8.688949982579631, 49.410703670362906 ] } },
{ "type": "Feature", "properties": { "id": 11, "Nombre": "Deutsche Bank", "Profits": 27.3, "City": "Frankfurt", "Region": "Hesse ", "Sector": "bank", "Upper_sectors": "insurance & finance" }, "geometry": { "type": "Point", "coordinates": [ 8.678455264443679, 50.107753390682866 ] } },
{ "type": "Feature", "properties": { "id": 12, "Nombre": "Commerzbank", "Profits": 10.2, "City": "Frankfurt", "Region": "Hesse ", "Sector": "bank", "Upper_sectors": "insurance & finance" }, "geometry": { "type": "Point", "coordinates": [ 8.678455264443679, 50.107753390682866 ] } },
{ "type": "Feature", "properties": { "id": 13, "Nombre": "Deutsche Börse", "Profits": 2.1, "City": "Frankfurt", "Region": "Hesse ", "Sector": "finance", "Upper_sectors": "insurance & finance" }, "geometry": { "type": "Point", "coordinates": [ 8.678455264443679, 50.107753390682866 ] } },
{ "type": "Feature", "properties": { "id": 14, "Nombre": "Deutsche Lufthansa", "Profits": 27.3, "City": "Cologne", "Region": "North Rhine-Westphalia", "Sector": "aviation", "Upper_sectors": "traffic" }, "geometry": { "type": "Point", "coordinates": [ 6.955413359578039, 50.939916388905694 ] } },
{ "type": "Feature", "properties": { "id": 15, "Nombre": "Eon", "Profits": 92.7, "City": "Düsseldorf", "Region": "North Rhine-Westphalia", "Sector": "provider", "Upper_sectors": "provision" }, "geometry": { "type": "Point", "coordinates": [ 6.774140955411665, 51.228787631541749 ] } },
{ "type": "Feature", "properties": { "id": 16, "Nombre": "Bayer", "Profits": 35.0, "City": "Leverkusen", "Region": "North Rhine-Westphalia", "Sector": "chemistry\/pharma", "Upper_sectors": "pharmaceutical industry" }, "geometry": { "type": "Point", "coordinates": [ 6.984035318130625, 51.044405796510752 ] } },
{ "type": "Feature", "properties": { "id": 17, "Nombre": "RWE", "Profits": 53.3, "City": "Essen", "Region": "North Rhine-Westphalia", "Sector": "provider", "Upper_sectors": "provision" }, "geometry": { "type": "Point", "coordinates": [ 7.010749146113038, 51.463580198399171 ] } },
{ "type": "Feature", "properties": { "id": 18, "Nombre": "ThyssenKrupp", "Profits": 43.4, "City": "Düsseldorf", "Region": "North Rhine-Westphalia", "Sector": "steel", "Upper_sectors": "industry" }, "geometry": { "type": "Point", "coordinates": [ 6.774140955411665, 51.228787631541749 ] } },
{ "type": "Feature", "properties": { "id": 19, "Nombre": "Metro", "Profits": 67.3, "City": "Düsseldorf", "Region": "North Rhine-Westphalia", "Sector": "trade", "Upper_sectors": "trade" }, "geometry": { "type": "Point", "coordinates": [ 6.774140955411665, 51.228787631541749 ] } },
{ "type": "Feature", "properties": { "id": 20, "Nombre": "Deutsche Post (DHL)", "Profits": 51.5, "City": "Bonn", "Region": "North Rhine-Westphalia", "Sector": "logistic", "Upper_sectors": "logistic" }, "geometry": { "type": "Point", "coordinates": [ 7.096615021770794, 50.742307753991113 ] } },
{ "type": "Feature", "properties": { "id": 21, "Nombre": "Deutsche Telekom", "Profits": 62.4, "City": "Bonn", "Region": "North Rhine-Westphalia", "Sector": "telecommunication", "Upper_sectors": "provision" }, "geometry": { "type": "Point", "coordinates": [ 7.096615021770794, 50.742307753991113 ] } },
{ "type": "Feature", "properties": { "id": 22, "Nombre": "Henkel", "Profits": 15.1, "City": "Düsseldorf", "Region": "North Rhine-Westphalia", "Sector": "consumer goods", "Upper_sectors": "trade" }, "geometry": { "type": "Point", "coordinates": [ 6.774140955411665, 51.228787631541749 ] } },
{ "type": "Feature", "properties": { "id": 23, "Nombre": "Beiersdorf", "Profits": 6.2, "City": "Hamburg", "Region": "Hamburg", "Sector": "cosmetics", "Upper_sectors": "pharmaceutical industry" }, "geometry": { "type": "Point", "coordinates": [ 9.958810877029331, 53.538797643096025 ] } },
{ "type": "Feature", "properties": { "id": 24, "Nombre": "K+S Kali GmbH", "Profits": 5.0, "City": "Kassel", "Region": "Hesse ", "Sector": "alkali metal\/mining", "Upper_sectors": "building" }, "geometry": { "type": "Point", "coordinates": [ 9.474145712205555, 51.313546963855615 ] } },
{ "type": "Feature", "properties": { "id": 25, "Nombre": "Merck", "Profits": 9.3, "City": "Darmstadt", "Region": "Hesse ", "Sector": "pharma", "Upper_sectors": "pharmaceutical industry" }, "geometry": { "type": "Point", "coordinates": [ 8.640292653040232, 49.870982813712757 ] } },
{ "type": "Feature", "properties": { "id": 26, "Nombre": "Fresenius Medical Care", "Profits": 9.1, "City": "Bad Homburg", "Region": "Hesse ", "Sector": "health\/pharma", "Upper_sectors": "pharmaceutical industry" }, "geometry": { "type": "Point", "coordinates": [ 8.623119477908681, 50.222649800160369 ] } },
{ "type": "Feature", "properties": { "id": 27, "Nombre": "Fresenius", "Profits": 16.0, "City": "Bad Homburg", "Region": "Hesse ", "Sector": "chemistry\/health", "Upper_sectors": "pharmaceutical industry" }, "geometry": { "type": "Point", "coordinates": [ 8.623119477908681, 50.222649800160369 ] } },
{ "type": "Feature", "properties": { "id": 28, "Nombre": "Daimler", "Profits": 97.8, "City": "Stuttgart", "Region": "Baden-Württemberg", "Sector": "automobile", "Upper_sectors": "automobile" }, "geometry": { "type": "Point", "coordinates": [ 9.168844820977977, 48.789171908055316 ] } },
{ "type": "Feature", "properties": { "id": 29, "Nombre": "SAP", "Profits": 12.6, "City": "Walldorf", "Region": "Baden-Württemberg", "Sector": "software", "Upper_sectors": "software development" }, "geometry": { "type": "Point", "coordinates": [ 8.645062979465664, 49.303819270787649 ] } },
{ "type": "Feature", "properties": { "id": 30, "Nombre": "Volkswagen", "Profits": 126.9, "City": "Wolfsburg", "Region": "Lower Saxony", "Sector": "automobile", "Upper_sectors": "automobile" }, "geometry": { "type": "Point", "coordinates": [ 10.786939544484131, 52.424221459821155 ] } }
]
}
